City,Country,Lat,Long,Max Temp,Humidity,Cloudiness,Wind Speed,Date
Kiunga,PG,-6.1219,141.2906,86.86,61,59,2.66,1619831275
Ginir,ET,7.1333,40.7,56.46,87,95,3.89,1619831276
Portland,US,45.5234,-122.6762,66.2,59,90,3.44,1619830862
Esperance,AU,-33.8667,121.9,55.4,94,90,6.91,1619831276
Vaini,TO,-21.2,-175.2,78.8,89,75,12.66,1619831277
Puerto Ayora,EC,-0.7393,-90.3518,74.59,82,9,7.49,1619831277
Atuona,PF,-9.8,-139.0333,79.41,68,0,3.47,1619831017
São Filipe,CV,14.8961,-24.4956,72.88,75,11,6.8,1619831277
Poum,NC,-20.2333,164.0167,76.87,67,94,8.99,1619831278
Mangan,IN,27.5167,88.5333,72.9,51,88,2.01,1619831278
Khatanga,RU,71.9667,102.5,33.42,88,100,10.27,1619831278
Cherskiy,RU,68.75,161.3,18.54,81,78,1.95,1619831279
East London,ZA,-33.0153,27.9116,62.53,71,100,12.57,1619831279
Harper,LR,4.375,-7.7169,80.67,78,100,3.27,1619831280
Barrow,US,71.2906,-156.7887,21.2,79,90,4.61,1619831280
Mataura,NZ,-46.1927,168.8643,54.0,74,91,7.0,1619831281
Constitución,CL,-35.3333,-72.4167,56.28,87,100,10.85,1619831281
Butaritari,KI,3.0707,172.7902,83.44,73,25,11.59,1619831281
Bethel,US,41.3712,-73.414,50.0,53,6,3.0,1619831282
Cockburn Town,TC,21.4612,-71.1419,78.8,69,40,8.05,1619831282
Tasiilaq,GL,65.6145,-37.6368,26.6,93,25,6.91,1619831282
Punta Arenas,CL,-53.15,-70.9167,42.8,93,90,4.61,1619831283
Rikitea,PF,-23.1203,-134.9692,79.12,77,47,20.2,1619831283
Forsytheganj,BY,52.6333,29.7333,47.48,90,100,5.19,1619831284
Iralaya,HN,15.0,-83.2333,82.4,78,20,9.22,1619831284
Ushuaia,AR,-54.8,-68.3,37.4,93,20,2.3,1619831193
Wamba,NG,8.9333,8.6,81.03,56,40,0.18,1619831285
Severo-Kuril'sk,RU,50.6789,156.125,35.35,96,100,22.68,1619831285
Kapaa,US,22.0752,-159.319,73.4,88,90,10.36,1619831286
Halifax,CA,44.6453,-63.5724,46.0,93,90,16.11,1619831159
Cape Town,ZA,-33.9258,18.4232,57.99,82,0,9.22,1619831286
Raypur,IN,22.4108,88.5094,80.6,61,20,11.95,1619831286
Teya,RU,60.3778,92.6267,35.2,96,100,10.36,1619831287
Jamestown,US,42.097,-79.2353,41.0,60,90,16.11,1619831287
Hong Kong,HK,22.2855,114.1577,79.0,82,98,1.01,1619831285
Mason City,US,43.1536,-93.201,62.6,16,1,8.05,1619831246
Albany,US,42.6001,-73.9662,46.0,65,62,1.99,1619831213
New Norfolk,AU,-42.7826,147.0587,64.4,48,75,12.66,1619831288
Busselton,AU,-33.65,115.3333,57.99,91,100,3.0,1619831288
Longyearbyen,SJ,78.2186,15.6401,12.2,62,20,17.27,1619831288
Bangassou,CF,4.7413,22.8184,69.28,96,100,3.27,1619831289
Chumikan,RU,54.7183,135.315,31.82,95,100,12.62,1619831289
Goroka,PG,-6.0834,145.3873,73.62,68,50,0.58,1619831290
Lagoa,PT,39.05,-27.9833,59.14,74,100,10.02,1619831290
Onega,RU,63.9061,38.1404,28.9,81,80,6.26,1619831123
Anadyr,RU,64.75,177.4833,21.2,79,90,4.47,1619831291
Grand Gaube,MU,-20.0064,57.6608,78.01,79,100,8.01,1619831291
Maridi,SS,4.9158,29.4742,68.04,89,96,3.98,1619831291
Nyurba,RU,63.2842,118.3319,39.97,82,100,8.46,1619831292
Barkhan,PK,29.8977,69.5256,74.39,33,6,4.18,1619831292
San Matías,BO,-16.3667,-58.4,72.64,48,52,1.43,1619831292
Marathon,US,44.9,-89.7668,55.4,24,1,5.75,1619831293
Kaitangata,NZ,-46.2817,169.8464,57.99,53,100,8.01,1619831293
Peniche,PT,39.3558,-9.3811,55.0,68,11,8.99,1619831294
Avarua,CK,-21.2078,-159.775,82.4,69,75,6.91,1619831294
Saint-Augustin,CA,51.226,-58.6502,40.33,82,100,18.43,1619831294
Ikom,NG,5.9667,8.7063,76.73,92,100,1.52,1619831295
Markova,UA,48.6758,24.4138,50.41,93,95,3.04,1619831295
Salym,RU,60.0625,71.4789,33.87,90,100,9.64,1619831295
São Félix do Xingu,BR,-6.6447,-51.995,71.98,91,80,2.73,1619831296
Mahébourg,MU,-20.4081,57.7,77.0,78,75,13.8,1619831296
Tarazá,CO,7.5836,-75.4007,74.55,95,100,2.75,1619831297
Lagos,NG,6.5833,3.75,80.6,89,20,3.44,1619831003
Yellowknife,CA,62.456,-114.3525,33.01,100,90,5.75,1619831297
Bang Saphan,TH,11.2126,99.5117,84.0,94,75,2.3,1619831298
Byron Bay,AU,-28.65,153.6167,71.6,68,40,12.66,1619831110
Upernavik,GL,72.7868,-56.1549,25.07,79,100,4.92,1619831298
Līsakovsk,KZ,52.5369,62.4936,42.93,57,13,2.57,1619831299
Foz do Iguaçu,BR,-25.5478,-54.5881,66.2,94,0,2.3,1619831299
Port Alfred,ZA,-33.5906,26.891,58.93,84,1,13.2,1619831300
San Patricio,US,28.017,-97.5169,73.99,94,90,13.8,1619831300
Abhā,SA,18.2164,42.5053,64.4,45,20,6.91,1619831301
Nanortalik,GL,60.1432,-45.2371,37.47,72,100,10.96,1619831301
Mossamedes,AO,-15.1961,12.1522,74.98,75,5,5.53,1619831169
Vardø,NO,70.3705,31.1107,32.88,90,100,21.0,1619831302
Bluff,NZ,-46.6,168.3333,54.0,74,76,7.0,1619831302
Puerto Escondido,MX,15.85,-97.0667,82.4,69,75,8.25,1619831302
Ribeira Grande,PT,38.5167,-28.7,59.94,79,100,10.85,1619831303
Fortuna,US,40.5982,-124.1573,57.99,100,40,10.36,1619831303
Taoudenni,ML,22.6783,-3.9836,76.33,54,99,9.24,1619831303
Millinocket,US,45.6573,-68.7098,41.0,87,90,9.22,1619831064
Pyshchug,RU,58.8873,45.7134,46.81,93,100,13.73,1619831304
Airai,TL,-8.9266,125.4092,70.63,52,67,4.09,1619831304
Bengkulu,ID,-3.8004,102.2655,78.17,81,100,3.22,1619831305
Khāsh,IR,28.2211,61.2158,64.58,54,100,1.39,1619831305
Souillac,MU,-20.5167,57.5167,77.0,78,75,13.8,1619831306
Anchorage,US,61.2181,-149.9003,46.4,31,1,10.36,1619831105
Mar del Plata,AR,-38.0023,-57.5575,63.0,77,0,10.36,1619831306
Alugan,PH,12.2188,125.4808,83.43,65,7,5.55,1619831306
Sitka,US,57.0531,-135.33,46.4,81,90,6.91,1619831307
Mandera,KE,3.9366,41.867,83.55,58,99,8.97,1619831307
Carnarvon,AU,-24.8667,113.6333,69.8,46,100,13.8,1619831071
Aswān,EG,24.0934,32.907,84.7,14,0,8.01,1619831308
Los Llanos de Aridane,ES,28.6585,-17.9182,64.4,59,20,12.66,1619831308
Beitbridge,ZW,-22.2167,30.0,67.51,71,1,15.12,1619831308
Kavaratti,IN,10.5669,72.642,83.88,75,20,8.43,1619831308
Nikolskoye,RU,59.7035,30.7861,37.0,80,0,4.47,1619831309
Ayr,GB,55.4627,-4.6339,42.8,70,20,9.22,1619831309
Isangel,VU,-19.55,169.2667,84.2,65,75,5.75,1619831309
Tongi,BD,23.89,90.4058,78.8,78,40,8.05,1619831310
Salalah,OM,17.0151,54.0924,80.6,83,20,5.73,1619831310
Surgut,RU,61.25,73.4167,35.6,93,40,8.95,1619831254
Te Anau,NZ,-45.4167,167.7167,50.94,67,26,1.07,1619831141
Lødingen,NO,68.414,15.9951,27.0,93,75,2.3,1619831311
Russell,US,32.3502,-85.1999,73.4,55,20,6.91,1619831311
Arman',RU,59.7,150.1667,36.52,73,100,3.06,1619831311
Verkhnetulomskiy,RU,68.6073,31.7962,10.4,85,0,2.24,1619831312
Morón,AR,-34.6534,-58.6198,66.0,81,7,4.76,1619831312
Hermanus,ZA,-34.4187,19.2345,52.0,81,0,3.0,1619831258
Hithadhoo,MV,-0.6,73.0833,83.91,72,98,6.73,1619831299
San Juan,AR,-31.5375,-68.5364,67.95,43,0,5.88,1619831313
Cortez,US,37.3489,-108.5859,77.0,12,1,14.97,1619831313
Grand-Santi,GF,4.25,-54.3833,72.63,98,100,3.65,1619831314
Hinatuan,PH,8.3722,126.3342,84.83,65,12,4.05,1619831314
Talnakh,RU,69.4865,88.3972,23.34,81,13,2.77,1619831314
Wau,SS,7.7029,27.9953,77.36,68,99,4.29,1619831314
Ullapool,GB,57.8987,-5.1604,37.0,63,97,3.2,1619831315
Bambanglipuro,ID,-7.95,110.2833,81.01,77,85,4.65,1619831315
Hamilton,US,39.1834,-84.5333,53.6,37,1,12.66,1619831017
George Town,MY,5.4112,100.3354,78.8,94,20,4.61,1619831043
Bredasdorp,ZA,-34.5322,20.0403,41.0,93,0,2.3,1619831316
Saskylakh,RU,71.9167,114.0833,31.95,93,100,7.52,1619831317
Ancud,CL,-41.8697,-73.8203,55.0,100,90,12.66,1619831317
Ruwi,OM,23.5996,58.5507,80.6,54,20,2.3,1619831318
Castro,BR,-24.7911,-50.0119,50.81,95,23,5.95,1619831318
New Iberia,US,30.0035,-91.8187,73.4,88,1,8.05,1619831318
Canguaretama,BR,-6.38,-35.1289,77.0,88,0,8.05,1619831319
Ust'-Ilimsk,RU,58.0006,102.6619,39.78,82,12,8.19,1619831229
Dikson,RU,73.5069,80.5464,18.09,95,100,7.92,1619831319
Dali,CN,25.7,100.1833,63.72,64,100,0.89,1619831320
Nishihara,JP,26.1842,127.7558,78.8,78,75,10.36,1619831320
Cayenne,GF,4.9333,-52.3333,78.01,100,20,1.14,1619831321
Nieuw Amsterdam,SR,5.8833,-55.0833,80.6,78,0,2.3,1619831321
Asău,RO,46.4333,26.4,53.01,58,100,4.81,1619831321
Chui,UY,-33.6971,-53.4616,59.85,93,100,7.9,1619831322
Alofi,NU,-19.0595,-169.9187,77.0,94,100,6.91,1619831322
Kapasan,ID,-6.7773,111.3789,80.76,82,94,3.91,1619831322
College,US,64.8569,-147.8028,37.99,44,75,13.8,1619831323
Yumen,CN,40.2833,97.2,70.36,9,100,3.74,1619831323
Nuuk,GL,64.1835,-51.7216,32.0,100,93,12.66,1619831323
Sergeevka,KZ,53.88,67.4158,39.02,61,6,8.32,1619831324
Codrington,AU,-38.2667,141.9667,69.96,42,100,15.08,1619831324
Cidreira,BR,-30.1811,-50.2056,68.79,71,0,16.96,1619831324
Esso,RU,55.9333,158.7,40.44,89,100,4.68,1619831325
Caravelas,BR,-17.7125,-39.2481,75.87,67,100,13.87,1619831325
Eureka,US,40.8021,-124.1637,57.0,84,100,1.01,1619831190
Hobart,AU,-42.8794,147.3294,64.4,48,75,12.66,1619831219
Huanan,CN,46.2167,130.5167,54.54,43,100,6.38,1619831326
Upata,VE,8.0086,-62.3989,78.01,84,100,1.99,1619831326
Kamenka,RU,51.3223,42.7678,48.99,86,100,13.87,1619831326
Strezhevoy,RU,60.7333,77.5889,35.6,93,75,6.71,1619831327
Hasaki,JP,35.7333,140.8333,69.01,72,75,8.05,1619831327
Waipawa,NZ,-41.4122,175.5153,57.0,67,90,18.41,1619831327
Zapolyarnyy,RU,69.4154,30.8136,21.2,93,75,6.91,1619831328
Solnechnyy,RU,50.7214,136.6319,38.35,66,100,9.22,1619831328
Zonguldak,TR,41.25,31.8333,54.3,77,92,5.3,1619831329
Moranbah,AU,-22.0016,148.0466,73.87,60,15,16.98,1619831329
Lahaina,US,20.8783,-156.6825,80.6,69,40,17.27,1619830860
Dracena,BR,-21.4843,-51.535,66.52,44,100,6.64,1619831330
Bonthe,SL,7.5264,-12.505,79.75,79,15,4.43,1619831330
Bima,ID,-8.4667,118.7167,84.79,72,12,1.12,1619831330
Kaka,TM,37.3482,59.6143,68.31,58,100,5.37,1619831331
Baker City,US,44.7749,-117.8344,69.8,28,1,18.41,1619831116
Lamar,US,33.6668,-95.5836,63.0,88,75,8.05,1619831331
Anloga,GH,5.7947,0.8973,82.4,83,20,8.05,1619831331
Lovozero,RU,68.005,35.0117,8.58,80,16,5.21,1619831332
Husavik,IS,66.0449,-17.3389,32.0,93,90,6.91,1619831332
Thompson,CA,55.7435,-97.8558,32.0,100,90,5.75,1619831332
Samarai,PG,-10.6167,150.6667,81.57,75,26,10.49,1619831333
Benguela,AO,-12.5763,13.4055,77.59,85,46,2.01,1619831333
Labuhan,ID,-6.8844,112.2051,81.21,80,69,6.22,1619831334
Temir,KZ,49.1414,57.13,45.5,54,15,9.01,1619831334
Aklavik,CA,68.2191,-135.0107,35.6,64,100,6.91,1619831334
Gualeguay,AR,-33.1416,-59.3097,58.17,70,0,7.74,1619831182
Tabas,IR,33.5959,56.9244,72.57,42,100,1.23,1619831335
Kizner,RU,56.2749,51.508,47.97,61,96,15.03,1619831335
Port Elizabeth,ZA,-33.918,25.5701,59.0,58,0,9.22,1619831336
Qaanaaq,GL,77.484,-69.3632,29.84,59,100,7.25,1619831336
Upington,ZA,-28.4478,21.2561,53.6,62,0,3.44,1619831336
São Domingos,BR,-13.3983,-46.3183,75.31,59,100,7.05,1619831337
Bilma,NE,18.6853,12.9164,82.74,6,0,8.79,1619831337
Hilo,US,19.7297,-155.09,84.2,54,75,10.36,1619831337
Ponta do Sol,PT,32.6667,-17.1,59.0,58,100,3.0,1619831338
Palmer,US,42.1584,-72.3287,50.0,53,75,26.46,1619831338
Koslan,RU,63.4564,48.8989,33.1,97,100,7.2,1619831338
Laas,IT,46.6166,10.7002,50.0,93,75,4.61,1619831338
Port Blair,IN,11.6667,92.75,77.0,88,20,0.34,1619831067
Cumberland,US,35.0502,-78.8664,73.4,35,1,9.22,1619831339
Srednekolymsk,RU,67.45,153.6833,27.37,77,5,11.81,1619831339
Hay River,CA,60.8156,-115.7999,33.8,86,100,4.61,1619831153
Antofagasta,CL,-23.65,-70.4,59.0,82,0,6.91,1619831269
Klaksvík,FO,62.2266,-6.589,35.6,87,90,5.75,1619831340
Hobyo,SO,5.3505,48.5268,83.25,68,100,6.98,1619831341
Skjervøy,NO,70.0311,20.9714,31.78,53,100,20.6,1619831341
Bubaque,GW,11.2833,-15.8333,78.85,68,31,14.14,1619831341
Conway,US,35.0887,-92.4421,71.6,73,1,4.61,1619831241
Vanimo,PG,-2.6741,141.3028,85.59,68,95,0.85,1619831342
Bathsheba,BB,13.2167,-59.5167,78.8,65,40,12.66,1619831342
Narsaq,GL,60.9167,-46.05,50.0,29,64,27.63,1619831327
Grand Forks,US,47.9417,-97.4337,59.0,23,75,23.02,1619831343
Harwich,GB,51.9419,1.2844,39.0,82,7,1.01,1619831343
Buala,SB,-8.145,159.5921,83.12,70,100,5.19,1619831344
São Miguel dos Campos,BR,-9.7811,-36.0936,77.0,83,75,10.36,1619831059
Great Yarmouth,GB,52.6083,1.7305,37.99,87,0,4.61,1619831344
Bagdarin,RU,54.4333,113.6,41.9,49,81,7.36,1619831345
General Pico,AR,-35.6566,-63.7568,58.21,65,100,11.34,1619831345
Geraldton,AU,-28.7667,114.6,62.6,39,87,13.8,1619831345
Nieves,PH,15.3274,120.9485,86.0,70,75,2.3,1619831346
Saldanha,ZA,-33.0117,17.9442,53.6,76,0,2.3,1619831346
Port Keats,AU,-14.25,129.55,84.25,41,0,8.16,1619831347
Arica,CL,-18.475,-70.3042,66.2,68,0,2.64,1619831108
Torbay,CA,47.6666,-52.7314,37.0,100,90,14.97,1619831347
Saint-Philippe,RE,-21.3585,55.7679,73.99,78,0,6.91,1619831348
Qaqortoq,GL,60.7167,-46.0333,50.0,29,34,27.63,1619831348
Manokwari,ID,-0.8667,134.0833,82.51,71,90,1.61,1619831348
Vila Velha,BR,-20.3297,-40.2925,77.0,68,0,10.36,1619831349
Berlevåg,NO,70.8578,29.0864,34.0,66,100,26.53,1619831349
Muli,MV,2.9167,73.5667,83.03,70,97,4.05,1619831350
San Cristobal,VE,7.7669,-72.225,75.2,100,75,4.61,1619831350
Constantine,DZ,36.365,6.6147,71.6,40,0,20.71,1619831350
Avera,US,33.194,-82.5271,69.8,52,1,4.61,1619831351
Pontes e Lacerda,BR,-15.2261,-59.3353,67.24,72,0,2.91,1619831299
Daphne,US,30.6035,-87.9036,73.4,88,1,3.44,1619831351
Sambava,MG,-14.2667,50.1667,74.89,88,0,8.03,1619831351
Lorengau,PG,-2.0226,147.2712,86.07,63,32,2.57,1619831352
Naze,JP,28.3667,129.4833,75.2,78,75,21.85,1619831352
Yangi Marg`ilon,UZ,40.4272,71.7189,64.4,55,32,4.61,1619831352
Puerto Carreño,CO,6.189,-67.4859,74.84,84,66,2.37,1619831353
São João da Barra,BR,-21.6403,-41.0511,68.9,75,100,9.48,1619831353
Lavrentiya,RU,65.5833,-171.0,25.57,67,56,2.98,1619831354
Pandan,PH,14.0453,124.1694,82.89,63,8,1.59,1619831354
Honiara,SB,-9.4333,159.95,85.78,63,100,4.81,1619831354
Talaya,RU,61.3833,152.75,30.69,85,100,2.75,1619831355
Gizo Government Station,SB,-8.103,156.8419,84.0,72,25,7.07,1619831355
Port Lincoln,AU,-34.7333,135.8667,74.52,35,99,19.39,1619831229
Kaeo,NZ,-35.1,173.7833,66.99,71,24,8.99,1619831355
Zyryanka,RU,65.75,150.85,36.36,81,100,4.83,1619831356
Cap Malheureux,MU,-19.9842,57.6142,78.01,79,100,5.01,1619831356
Muyezerskiy,RU,63.9333,31.65,25.48,83,83,6.33,1619831356
Mafinga,TZ,-7.25,35.0667,65.25,87,100,1.95,1619831357
Port Hardy,CA,50.6996,-127.4199,51.8,87,75,2.3,1619831357
Lékoni,GA,-1.5843,14.2591,70.88,89,100,4.32,1619831357
Mikumi,TZ,-7.4041,36.9831,68.16,96,95,2.26,1619831359
Batagay,RU,67.6333,134.6333,32.59,90,95,0.83,1619831359
Bac Lieu,VN,9.285,105.7244,86.36,66,100,12.93,1619831360
Clearwater,US,27.9659,-82.8001,77.0,83,75,6.91,1619831360
Wuhu,CN,31.3366,118.3755,64.4,63,0,4.47,1619831360
Sabang,ID,5.8933,95.3214,83.01,74,99,8.23,1619831361
Emporia,US,38.4039,-96.1817,71.6,40,1,8.05,1619831331
Vestmannaeyjar,IS,63.4427,-20.2734,37.92,94,95,11.21,1619831362
Selma,US,36.5708,-119.6121,91.4,15,75,11.5,1619831362
Chokurdakh,RU,70.6333,147.9167,20.28,82,8,5.93,1619831363
Sorgun,TR,39.8101,35.186,50.38,79,7,2.93,1619831363
Narón,ES,43.5167,-8.1528,48.2,87,40,1.14,1619831363
Wichita Falls,US,33.9137,-98.4934,71.6,73,75,9.22,1619831208
Coahuayana Viejo,MX,18.7333,-103.6833,84.2,48,40,11.5,1619831364
Kralendijk,BQ,12.15,-68.2667,78.8,83,100,12.66,1619831364
Palamós,ES,41.8484,3.1291,55.99,22,98,11.63,1619831365
Formby,GB,53.5536,-3.0682,42.01,84,22,7.16,1619831104
Westport,US,41.1415,-73.3579,53.6,37,75,27.63,1619831365
Vila Franca do Campo,PT,37.7167,-25.4333,51.8,71,20,2.3,1619831366
Nome,US,64.5011,-165.4064,26.01,68,75,6.91,1619831366
Opuwo,NA,-18.0607,13.84,68.9,37,57,5.12,1619831366
Laguna,US,38.421,-121.4238,80.01,35,1,8.05,1619831367
Arraial do Cabo,BR,-22.9661,-42.0278,71.94,66,37,8.7,1619831367
Diébougou,BF,10.9667,-3.25,86.47,44,35,5.37,1619831367
Tarauacá,BR,-8.1614,-70.7656,72.43,82,47,1.92,1619831184
Provideniya,RU,64.3833,-173.3,28.74,75,100,5.95,1619831368
Mayo,US,38.8876,-76.5119,55.4,47,1,12.66,1619831368
Siilinjärvi,FI,63.0833,27.6667,30.2,59,0,5.75,1619831368
Mehamn,NO,71.0357,27.8492,32.9,61,93,22.39,1619831369
Mount Barker,AU,-35.0667,138.8667,78.01,41,100,12.64,1619831369
La Santisima Trinidad,BO,-14.8333,-64.9,66.78,75,1,2.62,1619831369
Hefei,CN,31.8639,117.2808,70.0,59,0,2.24,1619831359
Boddam,GB,57.4667,-1.7833,42.01,100,25,1.14,1619831370
Tarko-Sale,RU,64.9225,77.785,32.0,93,100,1.99,1619831370
Ostrovnoy,RU,68.0531,39.5131,16.3,81,100,5.84,1619831371
Eston,CA,51.1501,-108.7514,77.0,17,75,14.97,1619831371
Våler,NO,60.6785,11.8331,32.0,64,0,2.3,1619831372
Santiago del Estero,AR,-27.7951,-64.2615,62.4,50,6,7.9,1619831372
Yar-Sale,RU,66.8333,70.8333,15.12,92,61,9.73,1619831372
Aitape,PG,-3.1374,142.3475,85.23,66,100,2.35,1619831372
Kelvington,CA,52.1667,-103.5343,69.8,24,10,6.91,1619831373
Buraidah,SA,26.326,43.975,71.6,37,0,4.61,1619831373
Vazante,BR,-17.9869,-46.9078,66.87,78,100,3.89,1619831373
Tungor,RU,53.3808,142.9564,35.22,84,100,9.04,1619831374
Honningsvåg,NO,70.9821,25.9704,35.22,55,99,23.2,1619831374
Mahajanga,MG,-15.7167,46.3167,75.2,88,20,3.44,1619831374
Grindavik,IS,63.8424,-22.4338,33.8,75,20,21.85,1619831375
Kiama,AU,-34.6833,150.8667,73.0,73,0,5.01,1619831375
Cabo San Lucas,MX,22.8909,-109.9124,81.0,34,1,11.5,1619831376
Qandala,SO,11.472,49.8728,83.98,63,73,1.81,1619831376
Danielskuil,ZA,-28.1887,23.5395,45.46,81,0,8.99,1619831376
Koumac,NC,-20.5667,164.2833,79.07,62,89,8.46,1619831377
Arrondissement d'Ajaccio,FR,42.0,8.9167,59.0,82,75,4.61,1619831377
Mandalgovi,MN,45.7625,106.2708,40.42,30,100,16.53,1619831378
Arlit,NE,18.7369,7.3853,85.5,6,0,7.25,1619831378
Benicarló,ES,40.4165,0.4271,53.01,80,100,5.01,1619831378
Leningradskiy,RU,69.3833,178.4167,19.11,92,100,23.98,1619831379
Tilichiki,RU,60.4667,166.1,30.4,71,2,13.51,1619831379
Channel-Port aux Basques,CA,47.5702,-59.1367,38.59,94,100,38.59,1619831380
Tautira,PF,-17.7333,-149.15,86.0,66,40,14.97,1619831380
Alice Springs,AU,-23.7,133.8833,80.6,22,76,6.91,1619831147
Bontang,ID,0.1333,117.5,81.23,79,100,2.75,1619831157
Shingū,JP,33.7333,135.9833,62.6,82,75,24.16,1619831382
San Quintín,MX,30.4833,-115.95,69.84,59,0,13.58,1619831382
Lebu,CL,-37.6167,-73.65,56.43,92,100,21.85,1619831383
Port-Gentil,GA,-0.7193,8.7815,81.64,79,100,7.11,1619831383
Santa Cruz de la Sierra,BO,-17.8,-63.1667,66.2,72,22,2.3,1619831372
Dzhebariki-Khaya,RU,62.2167,135.8,36.64,97,100,1.81,1619831383
Beringovskiy,RU,63.05,179.3167,24.48,74,98,14.09,1619831384
Mount Isa,AU,-20.7333,139.5,80.6,41,0,11.5,1619831384
Río Gallegos,AR,-51.6226,-69.2181,41.0,93,0,11.5,1619831384
Mildura,AU,-34.2,142.15,73.99,37,100,9.22,1619831385
Baloteşti,RO,44.6167,26.1167,60.01,100,0,1.14,1619831385
Mahon,ES,39.8885,4.2658,59.0,94,0,4.61,1619831385
Naryan-Mar,RU,67.6713,53.087,29.03,81,100,7.72,1619831385
Tiksi,RU,71.6872,128.8694,30.52,89,22,4.5,1619831386
Hambantota,LK,6.1241,81.1185,75.2,100,20,2.3,1619831386
Khairpur,PK,27.5295,68.7617,78.8,57,95,5.21,1619831386
Kruisfontein,ZA,-34.0033,24.7314,51.93,69,0,6.26,1619831387
Kuril'sk,RU,45.2333,147.8833,34.57,92,100,16.67,1619831387
Loncoche,CL,-39.3667,-72.6333,55.4,100,90,5.75,1619831351
Saint Paul Harbor,US,57.79,-152.4072,48.2,53,1,8.05,1619831351
Burns Lake,CA,54.2331,-125.7533,46.4,66,97,5.75,1619831387
Ayan,RU,56.45,138.1667,30.69,96,100,13.44,1619831388
Ndola,ZM,-12.9587,28.6366,61.63,92,91,3.47,1619831388
Flinders,AU,-34.5833,150.8552,73.0,72,3,1.99,1619831389
Kentau,KZ,43.5206,68.5094,53.44,47,68,19.17,1619831389
Acapulco de Juárez,MX,16.8634,-99.8901,80.6,78,20,6.91,1619831390
Albert Lea,US,43.648,-93.3683,62.6,20,1,5.75,1619831390
Harlingen,US,26.1906,-97.6961,78.01,94,90,11.5,1619831391
Yerbogachën,RU,61.2767,108.0108,36.25,95,100,8.93,1619831391
Dawson Creek,CA,55.7666,-120.2362,55.4,38,20,28.77,1619831391
Jalu,LY,29.0331,21.5482,83.5,14,0,10.54,1619831391
Khilok,RU,51.3674,110.4676,43.97,42,100,7.49,1619831392
Faanui,PF,-16.4833,-151.75,80.78,73,100,4.09,1619831392
Burnie,AU,-41.0667,145.9167,63.0,66,100,3.0,1619831264
Pochutla,MX,15.7432,-96.4661,82.0,78,90,7.85,1619831393
Itakyry,PY,-24.9333,-55.2167,60.8,88,0,3.44,1619831393
Tvøroyri,FO,61.5556,-6.8111,35.6,87,90,5.75,1619831394
Urengoy,RU,65.9667,78.3667,32.14,96,100,15.1,1619831394
Kavieng,PG,-2.5744,150.7967,84.61,66,83,4.56,1619831394
Dondo,MZ,-19.6094,34.7431,73.4,94,90,3.91,1619831395
Bandi̇̄pur,NP,27.9333,84.4167,71.26,33,87,0.38,1619831395
Kodaikānāl,IN,10.2333,77.4833,55.45,90,18,2.04,1619831395
Touros,BR,-5.1989,-35.4608,75.2,94,0,4.61,1619831396
Guerrero Negro,MX,27.9769,-114.0611,74.25,42,0,18.99,1619831396
Dalbandin,PK,28.8947,64.4101,73.38,40,100,2.06,1619831397
Goderich,CA,43.7501,-81.7165,41.0,60,0,25.32,1619831398
Margate,GB,51.3813,1.3862,42.01,82,12,1.01,1619831398
Vryburg,ZA,-26.9566,24.7284,49.77,70,0,9.22,1619831399
Ballina,AU,-28.8667,153.5667,71.6,68,40,12.66,1619831399
Tuktoyaktuk,CA,69.4541,-133.0374,23.0,80,20,10.36,1619831399
Harrai,IN,22.6167,79.2167,83.7,26,89,2.39,1619831400
Horasan,TR,40.0458,42.1728,49.28,83,100,1.28,1619831400
Necochea,AR,-38.5473,-58.7368,52.0,87,0,5.01,1619831401
Kosh-Agach,RU,50.0,88.6667,49.55,61,100,7.92,1619831402
Askiz,RU,53.1319,90.5264,44.89,81,100,2.37,1619831403
Payson,US,40.0444,-111.7321,73.4,28,1,4.61,1619831403
Mangai,CD,-4.05,19.5333,69.28,99,100,0.51,1619831404
Lompoc,US,34.6391,-120.4579,57.0,87,90,11.5,1619831404
Veinticinco de Mayo,AR,-35.4323,-60.1727,52.0,84,0,1.99,1619831348
Hohhot,CN,40.8106,111.6522,48.2,37,0,8.95,1619831404
Hornepayne,CA,49.2138,-84.7705,34.72,50,6,2.84,1619831405
Broome,US,42.2506,-75.833,39.99,80,90,17.27,1619831405
Roald,NO,62.5833,6.1333,37.4,87,90,8.05,1619831405
Tokonou,GN,9.65,-9.7833,73.9,78,5,7.7,1619831406
Puerto Plata,DO,19.7934,-70.6884,75.2,94,20,9.06,1619831268
Bud,US,39.447,-86.1758,52.0,52,0,8.57,1619831406
Ilhabela,BR,-23.7781,-45.3581,70.07,74,100,8.55,1619831407
Arrondissement de Beaune,FR,47.0833,4.75,46.0,93,100,4.61,1619831407
Huanren,CN,41.2647,125.3667,49.78,53,100,4.59,1619831408
Mapiripán,CO,2.8892,-72.1256,70.39,97,100,2.95,1619831408
Ahipara,NZ,-35.1667,173.1667,65.89,62,21,12.95,1619831408
Acaraú,BR,-2.8856,-40.12,78.13,85,32,7.47,1619831409
Ndélé,CF,8.4109,20.6473,79.92,50,100,6.78,1619831409
Sakakah,SA,29.9697,40.2064,75.2,16,0,14.97,1619831409
Natchitoches,US,31.7668,-93.1335,68.0,77,1,6.91,1619831410
Hailey,US,43.5196,-114.3153,75.2,19,1,10.36,1619831410
Sheffield,GB,53.383,-1.4659,39.0,89,15,4.29,1619831410
Paita,PE,-5.0892,-81.1144,71.13,77,36,14.16,1619831411
Mnogovershinnyy,RU,53.9353,139.9242,32.31,85,100,3.33,1619831412
Fare,PF,-16.7,-151.0167,80.94,72,100,5.1,1619831412
Tashtyp,RU,52.7939,89.8983,42.51,91,100,3.06,1619831413
Tibati,CM,6.4667,12.6333,68.83,84,48,2.8,1619831413
Storforshei,NO,66.4043,14.5233,32.0,75,90,2.19,1619831413
Sauda,NO,59.6506,6.3542,39.0,78,24,5.5,1619831414
Magadan,RU,59.5667,150.8,34.18,81,100,1.81,1619831414
Seoul,KR,37.5683,126.9778,53.6,71,75,6.91,1619831400
Padang,ID,-0.9492,100.3543,78.8,94,20,2.3,1619831414
Merauke,ID,-8.4667,140.3333,83.07,69,12,10.42,1619831415
Adrar,MR,20.5022,-10.0711,77.63,42,96,4.45,1619831415
Deputatsky,RU,69.3,139.9,25.02,89,100,4.12,1619831415
Dolinsk,RU,47.35,142.8,32.0,100,75,22.37,1619831416
Wajima,JP,37.4,136.9,55.4,82,0,3.44,1619831416
Inírida,CO,3.8653,-67.9239,71.1,98,76,2.75,1619831416
Tārūt,SA,26.5733,50.0369,75.2,27,0,10.36,1619831417
Valladolid,ES,41.5833,-4.6667,48.0,67,99,7.67,1619831417
Poquoson,US,37.1224,-76.3458,69.8,26,90,29.93,1619831417
Parrita,CR,9.5201,-84.3225,68.0,100,90,2.3,1619831418
Marawi,PH,7.9986,124.2928,84.99,74,76,4.0,1619831418
Saint-François,FR,46.4154,3.9054,46.4,87,90,2.3,1619831418
Katsuura,JP,35.1333,140.3,69.01,72,40,6.91,1619831419
Pecos,US,31.4229,-103.4932,62.01,77,90,5.75,1619831419
Ilulissat,GL,69.2167,-51.1,33.8,64,97,3.44,1619831420
Dakar,SN,14.6937,-17.4441,68.0,94,6,11.5,1619831365
Sohbatpur,PK,28.5202,68.5434,86.7,21,5,6.82,1619831420
Bambous Virieux,MU,-20.3428,57.7575,78.01,78,75,13.8,1619831421
Kirakira,SB,-10.4544,161.9205,82.51,77,97,4.21,1619831422
Kulhudhuffushi,MV,6.6221,73.07,83.21,74,98,4.99,1619831422
Algiers,DZ,36.7525,3.042,62.6,82,75,9.22,1619831241
Carutapera,BR,-1.195,-46.02,75.87,92,57,4.16,1619831422
Altus,US,34.6381,-99.334,75.2,29,1,6.91,1619831423
Pisco,PE,-13.7,-76.2167,64.99,90,6,8.01,1619831423
Semey,KZ,50.4111,80.2275,42.8,70,0,13.42,1619831424
Atar,MR,20.5169,-13.0499,81.07,18,0,3.94,1619831424
Maneromango,TZ,-7.1988,38.7848,75.2,94,20,5.75,1619831425
Pevek,RU,69.7008,170.3133,19.06,81,100,16.24,1619831425
Joshīmath,IN,30.5667,79.5667,56.84,60,13,6.69,1619831425
Tabuk,PH,17.4189,121.4443,83.5,69,77,5.03,1619831426
Bilibino,RU,68.0546,166.4372,16.77,73,71,2.24,1619831426
Kajaani,FI,64.2273,27.7285,26.6,74,40,8.05,1619831427
Viedma,AR,-40.8135,-62.9967,68.99,46,100,17.36,1619831184
Saint-Pierre,RE,-21.3393,55.4781,73.99,78,0,6.91,1619831427
Mago,RU,53.2514,140.1822,39.27,72,100,3.96,1619831427
Manaus,BR,-3.1019,-60.025,80.6,83,20,6.91,1619831428
Makar'yev,RU,57.8797,43.8069,49.93,90,100,12.88,1619831428
Clyde River,CA,70.4692,-68.5914,19.4,100,90,4.61,1619831429
Nakamura,JP,32.9833,132.9333,68.29,85,99,12.75,1619831430
Naples,IT,40.8333,14.25,66.99,67,0,3.44,1619831430
Emirdağ,TR,39.0197,31.15,57.83,56,1,3.06,1619831430
Araguari,BR,-18.6472,-48.1872,68.0,73,0,8.05,1619831431
Arrondissement de Cahors,FR,44.4167,1.3333,51.8,87,100,6.91,1619831431
Winburg,ZA,-28.518,27.0093,44.42,92,0,3.71,1619831431
Kaseda-shirakame,JP,31.4167,130.3167,73.4,73,75,17.27,1619831432
Nelson Bay,AU,-32.7167,152.15,75.99,73,40,3.44,1619831432
Presidencia Roque Sáenz Peña,AR,-26.7852,-60.4388,66.0,80,1,6.22,1619831432
La Rioja,ES,42.25,-2.5,46.99,87,90,6.91,1619831433
Am Timan,TD,11.0297,20.2827,91.18,23,91,3.8,1619831433
Ağdaş,AZ,40.65,47.4761,57.2,88,40,5.75,1619831417
Willowmore,ZA,-33.2926,23.4895,46.54,78,0,1.45,1619831434
Barinitas,VE,8.7622,-70.4111,78.8,83,100,1.14,1619831434
Xining,CN,36.6167,101.7667,55.24,27,71,2.35,1619831423
Korla,CN,41.7597,86.1469,71.96,16,0,3.42,1619831435
Lüderitz,NA,-26.6481,15.1594,62.58,40,0,13.82,1619831435
Lata,PT,40.1629,-8.3327,53.01,83,30,2.3,1619831436
Gallup,US,35.5281,-108.7426,77.0,11,1,3.83,1619831436
Barrhead,GB,55.7992,-4.3929,39.99,100,97,2.3,1619831436
North Bay,CA,46.3168,-79.4663,34.0,86,40,10.36,1619831204
Gambo,CF,4.6482,22.2633,69.85,91,100,2.55,1619831437
Camacha,PT,33.0833,-16.3333,60.8,72,20,6.91,1619831437
Uchaly,RU,54.2996,59.4521,34.23,77,21,5.28,1619831437
Svoge,BG,42.9667,23.35,59.0,77,0,3.44,1619831438
Sisimiut,GL,66.9395,-53.6735,33.96,84,100,1.79,1619831438
Iqaluit,CA,63.7506,-68.5145,35.6,75,75,10.36,1619831440
Qasigiannguit,GL,68.8193,-51.1922,33.8,64,99,3.44,1619831440
Shelburne,CA,44.0787,-80.2041,42.01,78,13,18.99,1619831441
Port Jervis,US,41.3751,-74.6927,46.99,52,53,3.0,1619831441
Najrān,SA,17.4924,44.1277,77.0,29,75,2.3,1619831441
Northam,GB,51.0333,-4.2167,39.0,1,8,3.94,1619831441
Muisne,EC,0.6,-80.0333,75.88,90,100,4.38,1619831442
Rabo de Peixe,PT,37.8,-25.5833,51.8,71,20,2.3,1619831442
Saint George,US,37.1041,-113.5841,91.99,10,1,12.66,1619831232
Fairbanks,US,64.8378,-147.7164,37.99,51,90,12.66,1619831320
Rawson,AR,-43.3002,-65.1023,65.32,34,100,3.71,1619831443
Lima,PE,-12.0432,-77.0282,69.01,82,40,9.22,1619831400
Durban,ZA,-29.8579,31.0292,62.01,82,75,11.5,1619831444
Rocha,UY,-34.4833,-54.3333,55.15,76,100,6.44,1619831445
Bafoulabé,ML,13.8065,-10.8321,95.38,22,17,8.77,1619831445
Bereda,ES,43.2686,-7.5406,41.0,100,90,1.99,1619831446
Bethanien,NA,-26.502,17.1583,52.86,35,0,5.14,1619831446
Tawao,MY,4.2498,117.8871,82.4,89,20,2.3,1619831446
Pimentel,PE,-6.8367,-79.9342,68.0,77,90,17.27,1619831447
Ubinskoye,RU,55.3068,79.6802,42.44,78,98,11.18,1619831447
Bandarbeyla,SO,9.4942,50.8122,82.38,74,100,1.81,1619831448
Yining,CN,29.0361,114.5636,79.5,58,0,0.38,1619831449
Phalaborwa,ZA,-23.943,31.1411,64.4,94,83,8.05,1619831450
Zhangye,CN,38.9342,100.4517,67.69,16,99,5.5,1619831450
Idenao,CM,4.2475,9.0047,78.8,89,20,5.75,1619831451
Conceição da Barra,BR,-18.5933,-39.7322,72.68,74,97,9.62,1619831451
Walvis Bay,NA,-22.9575,14.5053,57.0,87,0,8.05,1619831451
Sai Buri,TH,6.7013,101.6168,77.0,94,20,4.61,1619831452
Medyn',RU,54.9692,35.8586,50.0,87,39,8.95,1619831452
Dvinskoy Bereznik,RU,62.8551,42.7072,33.87,94,100,2.24,1619831453
Half Moon Bay,US,37.4636,-122.4286,64.0,87,90,12.66,1619831453
Nabire,ID,-3.3667,135.4833,85.51,65,82,2.15,1619831454
Dodge City,US,37.7528,-100.0171,73.0,28,1,9.22,1619831159
Ipixuna,BR,-1.7625,-48.8043,73.4,100,75,8.05,1619831455
Agadez,NE,19.75,10.25,81.48,7,0,6.8,1619831455
Road Town,VG,18.4167,-64.6167,79.0,78,40,8.05,1619831456
Rio Grande,BR,-32.035,-52.0986,63.0,92,0,13.71,1619831456
Kedrovyy,RU,56.1667,91.8167,44.6,53,0,2.24,1619831456
Tuatapere,NZ,-46.1333,167.6833,54.0,74,96,7.0,1619831457
Ko Samui,TH,9.5357,99.9357,83.98,72,95,8.86,1619831457
Sioux Lookout,CA,50.1001,-91.917,51.8,25,75,8.05,1619831458
Sawtell,AU,-30.3833,153.1,68.0,83,83,6.91,1619831458
Pachino,IT,36.7186,15.0907,64.4,59,99,3.44,1619831459
Oranjemund,NA,-28.55,16.4333,55.81,73,0,7.76,1619831459
Pangani,TZ,-5.4333,38.9667,74.57,91,100,7.16,1619831460
Kenosha,US,42.5667,-88.0501,44.01,61,1,10.36,1619831315
Soe,ID,-9.8607,124.284,75.22,66,16,7.09,1619831460
Riyadh,SA,24.6877,46.7219,78.8,14,0,5.75,1619831391
Churapcha,RU,62.0025,132.4325,39.78,92,98,7.58,1619831461
Saint-Leu,RE,-21.15,55.2833,75.2,78,0,3.44,1619831462
Guadalupe y Calvo,MX,26.1,-106.9667,46.98,62,90,8.1,1619831462
Tual,ID,-5.6667,132.75,83.39,73,38,14.03,1619831360
Bereket,TM,39.2446,55.5154,70.18,43,0,16.06,1619831463
Jishou,CN,28.3167,109.7167,76.95,65,100,2.75,1619831463
Burla,IN,21.5,83.8667,73.4,83,5,2.24,1619831464
Kautokeino,NO,69.0125,23.0412,8.13,87,64,9.42,1619831464
Duiwelskloof,ZA,-23.6934,30.14,59.7,92,100,4.65,1619831465
Malartic,CA,48.1335,-78.1328,30.0,69,75,20.71,1619831467
Ibrā’,OM,22.6906,58.5334,73.71,41,15,2.86,1619831467
La Macarena,CO,2.1837,-73.7849,70.12,99,94,2.53,1619831467
Haines Junction,CA,60.7522,-137.5108,46.4,42,100,12.66,1619831468
Kloulklubed,PW,7.0419,134.2556,87.8,70,75,12.66,1619831468
Malakal,SS,9.5334,31.6605,76.44,73,73,2.77,1619831469
Bhuj,IN,23.2667,69.6667,79.48,65,100,4.34,1619831469
Birobidzhan,RU,48.8,132.95,48.56,48,15,5.37,1619831463
Paramonga,PE,-10.6667,-77.8333,67.24,88,13,7.36,1619831470
Port Macquarie,AU,-31.4333,152.9167,75.99,62,15,1.99,1619831471
Belmonte,BR,-15.8631,-38.8828,73.4,83,75,6.91,1619831472
Khovd,MN,48.0056,91.6419,62.56,26,100,9.86,1619831472
Cabañas,CU,22.9758,-82.9219,78.01,88,75,2.3,1619831472
Kerema,PG,-7.9631,145.7785,82.24,70,6,3.65,1619831473
Mugumu,TZ,-1.85,34.7,57.61,86,92,2.66,1619831473
Plettenberg Bay,ZA,-34.0527,23.3716,55.08,71,0,4.23,1619831474
Lollar,DE,50.6465,8.705,44.01,73,100,1.36,1619831474
Karratha,AU,-20.7377,116.8463,86.88,30,0,11.07,1619831474
Tezpur,IN,26.6333,92.8,83.8,35,47,2.13,1619831428
Ambatofinandrahana,MG,-20.55,46.8,55.69,95,3,2.44,1619831475
Broken Hill,AU,-31.95,141.4333,68.0,42,100,11.5,1619831476
Eyl,SO,7.9803,49.8164,81.52,75,100,3.76,1619831476
Altay,CN,47.8667,88.1167,60.89,48,100,5.68,1619831359
Wiwilí,NI,13.6268,-85.8254,79.92,52,24,5.39,1619831476
Pahrump,US,36.2083,-115.9839,96.01,8,7,4.0,1619831477
Quisqueya,DO,18.5554,-69.4081,77.0,83,40,4.61,1619831477
Dārāb,IR,28.7519,54.5444,65.93,57,100,2.3,1619831477
Smithers,CA,54.7804,-127.1743,50.0,62,90,4.61,1619831256
Romny,UA,50.751,33.4747,50.68,96,71,6.17,1619831478
Stolin,BY,51.8912,26.846,41.02,90,73,6.71,1619831478
Berdigestyakh,RU,62.0989,126.6992,35.58,98,100,6.06,1619831479
Matagami,CA,49.7502,-77.6328,24.8,58,90,24.16,1619831479
Marsá Maţrūḩ,EG,31.3525,27.2453,66.2,30,0,8.05,1619831231
Ketchikan,US,55.3422,-131.6461,46.4,93,90,12.66,1619831330
Marrakesh,MA,31.6315,-8.0083,55.4,71,40,5.75,1619831462
Ambon City,ID,-3.6954,128.1814,89.6,62,40,2.3,1619831480
Suleja,NG,9.1758,7.1808,81.48,57,100,4.5,1619831480
Sørland,NO,67.667,12.6934,35.67,60,100,13.87,1619831481
Sol'vychegodsk,RU,61.3305,46.9156,39.27,98,100,5.08,1619831481
Comodoro Rivadavia,AR,-45.8667,-67.5,64.4,59,0,2.3,1619831481
Kununurra,AU,-15.7667,128.7333,86.0,35,0,6.91,1619831482
Warrnambool,AU,-38.3833,142.4833,66.0,64,100,5.99,1619831482
Kultuk,RU,51.7208,103.6956,39.58,98,100,2.15,1619831482
Ābādān,IR,30.3392,48.3043,80.6,41,0,4.61,1619831483
Abu Samrah,SY,35.3029,37.1841,66.58,37,0,4.72,1619831483
Norman Wells,CA,65.282,-126.8329,48.2,31,20,12.66,1619831484
Caceres,ES,39.522,-6.3748,46.0,81,99,1.99,1619831485
Hagi,JP,34.4,131.4167,71.6,60,75,11.5,1619831486
Lensk,RU,60.7253,114.9278,40.93,73,25,3.65,1619831486
Loikaw,MM,19.6742,97.2094,75.94,67,9,0.27,1619831487
São Gabriel da Cachoeira,BR,-0.1303,-67.0892,72.73,98,100,3.09,1619831488
Talcahuano,CL,-36.7167,-73.1167,57.2,94,90,16.11,1619831489
Sangar,RU,63.9242,127.4739,36.91,78,100,5.08,1619831489
